eqfeed_callback(
{
    "features": [
        {
            "properties": {
                "name": "MCLAREN,KIRSTY J",
                "address": "7050 S CHERRY TREE LN",
                "city": "SALT LAKE CITY",
                "state": " UT",
                "postalCode": "84121",
                "icon": "Yellow.png",
                "latitude": 40.622735,
                "longitude": -111.841006
            }
        },
        {
            "properties": {
                "name": "WHITMAN,STEPHEN S",
                "address": "2130 PINNACLE TERR #106",
                "city": "SALT LAKE CITY",
                "state": " UT",
                "postalCode": "84121",
                "icon": "Yellow.png",
                "latitude": 40.60967,
                "longitude": -111.831816
            }
        },
        {
            "properties": {
                "name": "ROBINSON,BRADLEY H",
                "address": "1519 ARBOR VIEW",
                "city": "SO JORDAN",
                "state": " UT",
                "postalCode": "84095",
                "icon": "Yellow.png",
                "latitude": 40.56221,
                "longitude": -111.92911
            }
        },
        {
            "properties": {
                "name": "WRIGHT,CHAD",
                "address": "5918 SO TROWBRIDGE WAY",
                "city": "SALT LAKE CITY",
                "state": " UT",
                "postalCode": "84118",
                "icon": "Yellow.png",
                "latitude": 40.643495,
                "longitude": -112.029323
            }
        },
        {
            "properties": {
                "name": "MORGAN,TRENT B",
                "address": "9828 SOUTH KRAMER DR",
                "city": "SANDY",
                "state": " UT",
                "postalCode": "84092",
                "icon": "Yellow.png",
                "latitude": 40.572489,
                "longitude": -111.830504
            }
        },
        {
            "properties": {
                "name": "SIMONICH,DAVID A",
                "address": "9655 MT JORDAN RD",
                "city": "SANDY",
                "state": " UT",
                "postalCode": "84092",
                "icon": "Yellow.png",
                "latitude": 40.575673,
                "longitude": -111.818108
            }
        },
        {
            "properties": {
                "name": "BICKEL,THORN A",
                "address": "14492 S ENTRADA RIM LN",
                "city": "HERRIMAN",
                "state": " UT",
                "postalCode": "84065",
                "icon": "Yellow.png",
                "latitude": 40.495789,
                "longitude": -111.943116
            }
        },
        {
            "properties": {
                "name": "LUTZ,JASON A",
                "address": "1800 NORTH STATE STR #310",
                "city": "PROVO",
                "state": " UT",
                "postalCode": "84604",
                "icon": "Yellow.png",
                "latitude": 40.258244,
                "longitude": -111.673647
            }
        },
        {
            "properties": {
                "name": "DUNN,GABRIEL B",
                "address": "316 S CANYON AVE",
                "city": "SPRINGVILLE",
                "state": " UT",
                "postalCode": "84663",
                "icon": "Yellow.png",
                "latitude": 40.162982,
                "longitude": -111.588669
            }
        },
        {
            "properties": {
                "name": "VEENEMA,ARTHUR R.",
                "address": "1538 MALLARD CIR",
                "city": "PARK CITY",
                "state": " UT",
                "postalCode": "84098",
                "icon": "Yellow.png",
                "latitude": 40.727858,
                "longitude": -111.54107
            }
        },
        {
            "properties": {
                "name": "NOBLE,SHARYL BEUS",
                "address": "638 WEST 2525 SOUTH",
                "city": "SYRACUSE",
                "state": " UT",
                "postalCode": "84075",
                "icon": "Yellow.png",
                "latitude": 41.077235,
                "longitude": -112.037855
            }
        },
        {
            "properties": {
                "name": "KOPP,DERICK",
                "address": "11988 S BLUE HERON DR",
                "city": "DRAPER",
                "state": " UT",
                "postalCode": "84020",
                "icon": "Yellow.png",
                "latitude": 40.532435,
                "longitude": -111.863724
            }
        },
        {
            "properties": {
                "name": "HARMON,JAMES GARY",
                "address": "5476 S 1300 W",
                "city": "TAYLORSVILLE",
                "state": " UT",
                "postalCode": "84123",
                "icon": "Yellow.png",
                "latitude": 40.651112,
                "longitude": -111.92989
            }
        },
        {
            "properties": {
                "name": "ORTON,JOSHUA H",
                "address": "698 N BLACKHORSE LOOP",
                "city": "SPANISH FORK",
                "state": " UT",
                "postalCode": "84660",
                "icon": "Yellow.png",
                "latitude": 40.119294,
                "longitude": -111.633012
            }
        },
        {
            "properties": {
                "name": "THUNELL,HOLLY A",
                "address": "1517 N 1335 W",
                "city": "OREM",
                "state": " UT",
                "postalCode": "84057",
                "icon": "Yellow.png",
                "latitude": 40.324902,
                "longitude": -111.728139
            }
        },
        {
            "properties": {
                "name": "LITHAMALAY,VILAKONE",
                "address": "6288 S CASTLEFORD DR",
                "city": "WEST JORDAN",
                "state": " UT",
                "postalCode": "84084",
                "icon": "Yellow.png",
                "latitude": 40.637332,
                "longitude": -111.991117
            }
        },
        {
            "properties": {
                "name": "HANSEN,WAYNE K",
                "address": "486 N 360 E",
                "city": "SALEM",
                "state": " UT",
                "postalCode": "84653",
                "icon": "Yellow.png",
                "latitude": 40.044872,
                "longitude": -111.666196
            }
        },
        {
            "properties": {
                "name": "MENDOZA,DANIEL M",
                "address": "723 S WELLINGTON",
                "city": "KAYSVILLE",
                "state": " UT",
                "postalCode": "84037",
                "icon": "Yellow.png",
                "latitude": 41.023012,
                "longitude": -111.971917
            }
        },
        {
            "properties": {
                "name": "OSORNO,ALEJANDRO",
                "address": "3487 SOUTH 200 EAST",
                "city": "TAYLORSVILLE",
                "state": " UT",
                "postalCode": "84123",
                "icon": "Yellow.png",
                "latitude": 40.695597,
                "longitude": -111.885422
            }
        },
        {
            "properties": {
                "name": "GARCIA ,SERGIO A",
                "address": "1411 W HIGHLAND HOLLOW",
                "city": "WEST JORDAN",
                "state": " UT",
                "postalCode": "84084",
                "icon": "Yellow.png",
                "latitude": 40.614353,
                "longitude": -111.929872
            }
        },
        {
            "properties": {
                "name": "WRIGHT,VICTOR D.",
                "address": "2589 ALTA CANYON DR",
                "city": "SANDY",
                "state": " UT",
                "postalCode": "84093",
                "icon": "Yellow.png",
                "latitude": 40.595418,
                "longitude": -111.818983
            }
        },
        {
            "properties": {
                "name": "DICKERSON,DANIEL",
                "address": "PO BOX 910",
                "city": "LEHI",
                "state": " UT",
                "postalCode": "84043",
                "icon": "Yellow.png",
                "latitude": 40.39162,
                "longitude": -111.85077
            }
        },
        {
            "properties": {
                "name": "MALCOM,SCOTT",
                "address": "14178 S DESERT CREEK CIR",
                "city": "HERRIMAN",
                "state": " UT",
                "postalCode": "84065",
                "icon": "Yellow.png",
                "latitude": 40.47813,
                "longitude": -111.937789
            }
        },
        {
            "properties": {
                "name": "EWELL,LOGAN R",
                "address": "5466 LORRAINE WAY",
                "city": "TOOELE",
                "state": " UT",
                "postalCode": "84074",
                "icon": "Yellow.png",
                "latitude": 40.628851,
                "longitude": -112.297888
            }
        },
        {
            "properties": {
                "name": "MANOS,JAMES PHILIP",
                "address": "7284 S HICKORY HILL CR",
                "city": "SALT LAKE CITY",
                "state": " UT",
                "postalCode": "84121",
                "icon": "Yellow.png",
                "latitude": 40.618753,
                "longitude": -111.801481
            }
        },
        {
            "properties": {
                "name": "UNZUETA,CIPRIANO",
                "address": "10 W INGLENOOK DR #2605",
                "city": "MIDVALE",
                "state": " UT",
                "postalCode": "84047",
                "icon": "Yellow.png",
                "latitude": 40.624874,
                "longitude": -111.890165
            }
        },
        {
            "properties": {
                "name": "BYER,MARC A.",
                "address": "1196 E 6600 S #505",
                "city": "MURRAY",
                "state": " UT",
                "postalCode": "84121",
                "icon": "Yellow.png",
                "latitude": 40.630774,
                "longitude": -111.814427
            }
        },
        {
            "properties": {
                "name": "MUFFETT,GREGORY KENT",
                "address": "14346 SOUTH DEBRIAN WAY",
                "city": "DRAPER",
                "state": " UT",
                "postalCode": "84020",
                "icon": "Yellow.png",
                "latitude": 40.490566,
                "longitude": -111.880452
            }
        },
        {
            "properties": {
                "name": "ADAMS,DANNY G",
                "address": "3094 E SOMERSET DR",
                "city": "SPANISH FORK",
                "state": " UT",
                "postalCode": "84660",
                "icon": "Yellow.png",
                "latitude": 40.093673,
                "longitude": -111.603003
            }
        },
        {
            "properties": {
                "name": "VERA,ERICK A",
                "address": "55 W 1450 N #160",
                "city": "PROVO",
                "state": " UT",
                "postalCode": "84604",
                "icon": "Yellow.png",
                "latitude": 40.253395,
                "longitude": -111.659302
            }
        },
        {
            "properties": {
                "name": "ZEHNTER,KYLE B",
                "address": "167 W 1015 N",
                "city": "OREM",
                "state": " UT",
                "postalCode": "84057",
                "icon": "Yellow.png",
                "latitude": 40.315772,
                "longitude": -111.699486
            }
        },
        {
            "properties": {
                "name": "FEDDERSON,JEREMY T",
                "address": "12433 S 1450 W",
                "city": "RIVERTON",
                "state": " UT",
                "postalCode": "84065",
                "icon": "Yellow.png",
                "latitude": 40.52508,
                "longitude": -111.932669
            }
        },
        {
            "properties": {
                "name": "HENG,SEREY P",
                "address": "6677 S INTERLOCHEN LN",
                "city": "WEST JORDAN",
                "state": " UT",
                "postalCode": "84084",
                "icon": "Yellow.png",
                "latitude": 40.630533,
                "longitude": -111.985386
            }
        },
        {
            "properties": {
                "name": "BARBOUR,BRANDON J",
                "address": "11032 S LYNFORD",
                "city": "SANDY",
                "state": " UT",
                "postalCode": "84092",
                "icon": "Yellow.png",
                "latitude": 40.550547,
                "longitude": -111.850832
            }
        },
        {
            "properties": {
                "name": "LINDSAY,BENNETT E",
                "address": "532 S 280 W",
                "city": "OREM",
                "state": " UT",
                "postalCode": "84058",
                "icon": "Yellow.png",
                "latitude": 40.287373,
                "longitude": -111.70209
            }
        },
        {
            "properties": {
                "name": "BROWN,JASON N",
                "address": "2816 E DURBAN RD",
                "city": "SANDY",
                "state": " UT",
                "postalCode": "84093",
                "icon": "Yellow.png",
                "latitude": 40.581637,
                "longitude": -111.81193
            }
        },
        {
            "properties": {
                "name": "DESROCHES,JEAN B",
                "address": "947 SOUTH 1630 WEST",
                "city": "LEHI",
                "state": " UT",
                "postalCode": "84043",
                "icon": "Yellow.png",
                "latitude": 40.37531,
                "longitude": -111.87477
            }
        },
        {
            "properties": {
                "name": "VARNER,BRANDON J",
                "address": "1030 E FLORET LN #12K",
                "city": "MIDVALE",
                "state": " UT",
                "postalCode": "84047",
                "icon": "Yellow.png",
                "latitude": 40.625547,
                "longitude": -111.863434
            }
        },
        {
            "properties": {
                "name": "AGUAYO,RICARDO Y",
                "address": "2413 W 6830 S",
                "city": "WEST JORDAN",
                "state": " UT",
                "postalCode": "84084",
                "icon": "Yellow.png",
                "latitude": 40.627091,
                "longitude": -111.952652
            }
        },
        {
            "properties": {
                "name": "KOURBELAS,CODY J",
                "address": "1087 S 1050 W",
                "city": "WOODS CROSS",
                "state": " UT",
                "postalCode": "84087",
                "icon": "Yellow.png",
                "latitude": 40.878329,
                "longitude": -111.909146
            }
        },
        {
            "properties": {
                "name": "ALDER,CHRISTOPHER G",
                "address": "1505 ERICKSON PARK DR",
                "city": "WEST JORDAN",
                "state": " UT",
                "postalCode": "84084",
                "icon": "Yellow.png",
                "latitude": 40.618468,
                "longitude": -111.934313
            }
        },
        {
            "properties": {
                "name": "BAYNE,STEPHEN A",
                "address": "3306 S OAKWOOD ST",
                "city": "SALT LAKE CITY",
                "state": " UT",
                "postalCode": "84109",
                "icon": "Yellow.png",
                "latitude": 40.699709,
                "longitude": -111.817202
            }
        },
        {
            "properties": {
                "name": "YUEN,ALVIN W.C.",
                "address": "3716 E BROCKBANK DR",
                "city": "SALT LAKE CITY",
                "state": " UT",
                "postalCode": "84124",
                "icon": "Yellow.png",
                "latitude": 40.674252,
                "longitude": -111.790814
            }
        },
        {
            "properties": {
                "name": "WAGSTAFF,JAMES R",
                "address": "2514 E 1300 S",
                "city": "SALT LAKE CITY",
                "state": " UT",
                "postalCode": "84108",
                "icon": "Yellow.png",
                "latitude": 40.742346,
                "longitude": -111.818858
            }
        },
        {
            "properties": {
                "name": "OLSEN,BRITNIE M",
                "address": "2016 S 1900 E APT B",
                "city": "SALT LAKE CITY",
                "state": " UT",
                "postalCode": "84108",
                "icon": "Yellow.png",
                "latitude": 40.726182,
                "longitude": -111.836514
            }
        },
        {
            "properties": {
                "name": "KALAKIS,TED G",
                "address": "2906 E FORT UNION BLVD",
                "city": "SALT LAKE CITY",
                "state": " UT",
                "postalCode": "84121",
                "icon": "Yellow.png",
                "latitude": 40.623862,
                "longitude": -111.810321
            }
        },
        {
            "properties": {
                "name": "PECK,CHRISTOPHER D",
                "address": "1312 W 12040 S",
                "city": "RIVERTON",
                "state": " UT",
                "postalCode": "84065",
                "icon": "Yellow.png",
                "latitude": 40.532872,
                "longitude": -111.929373
            }
        },
        {
            "properties": {
                "name": "BARKELL,WES STEVEN",
                "address": "731 EAST 2200 NORTH",
                "city": "LEHI",
                "state": " UT",
                "postalCode": "84043",
                "icon": "Yellow.png",
                "latitude": 40.415653,
                "longitude": -111.837459
            }
        },
        {
            "properties": {
                "name": "DIAZ,MARCO T",
                "address": "582 N RIVERSIDE DR #3",
                "city": "SALT LAKE CITY",
                "state": " UT",
                "postalCode": "84116",
                "icon": "Yellow.png",
                "latitude": 40.782248,
                "longitude": -111.936882
            }
        },
        {
            "properties": {
                "name": "MCIFF,PAUL D",
                "address": "6288 W 8235 S",
                "city": "WEST JORDAN",
                "state": " UT",
                "postalCode": "84088",
                "icon": "Yellow.png",
                "latitude": 40.601806,
                "longitude": -112.040566
            }
        },
        {
            "properties": {
                "name": "GILLESPIE,MARK A",
                "address": "659 SOUTH 1160 WEST",
                "city": "OREM",
                "state": " UT",
                "postalCode": "84058",
                "icon": "Yellow.png",
                "latitude": 40.284822,
                "longitude": -111.723082
            }
        },
        {
            "properties": {
                "name": "MARTIN,KENWORTHY W",
                "address": "1720 N 280 W",
                "city": "OREM",
                "state": " UT",
                "postalCode": "84057",
                "icon": "Yellow.png",
                "latitude": 40.328756,
                "longitude": -111.702755
            }
        },
        {
            "properties": {
                "name": "OEFINGER,TERENCE J",
                "address": "9138 S 170 E",
                "city": "SANDY",
                "state": " UT",
                "postalCode": "84070",
                "icon": "Yellow.png",
                "latitude": 40.585568,
                "longitude": -111.885361
            }
        },
        {
            "properties": {
                "name": "LAM-TIANG,JIMMY F",
                "address": "1882 S WEST TEMPLE 120-C",
                "city": "SALT LAKE CITY",
                "state": " UT",
                "postalCode": "84115",
                "icon": "Yellow.png",
                "latitude": 40.728626,
                "longitude": -111.893935
            }
        },
        {
            "properties": {
                "name": "BROWN,DANIEL JAMES",
                "address": "10 BENTBROOK LANE",
                "city": "SANDY",
                "state": " UT",
                "postalCode": "84092",
                "icon": "Yellow.png",
                "latitude": 40.546881,
                "longitude": -111.811471
            }
        },
        {
            "properties": {
                "name": "SAYAVONG,JAMES",
                "address": "3966 W ZODIAC DR",
                "city": "KEARNS",
                "state": " UT",
                "postalCode": "84118",
                "icon": "Yellow.png",
                "latitude": 40.641841,
                "longitude": -111.990779
            }
        },
        {
            "properties": {
                "name": "BROWN,JAMES D",
                "address": "10 BENTBROOK LANE",
                "city": "SANDY",
                "state": " UT",
                "postalCode": "84092",
                "icon": "Yellow.png",
                "latitude": 40.546881,
                "longitude": -111.811471
            }
        },
        {
            "properties": {
                "name": "SCHWEMIN,PHILIP N",
                "address": "13807 S KYLE EARL LN",
                "city": "HERRIMAN",
                "state": " UT",
                "postalCode": "84065",
                "icon": "Yellow.png",
                "latitude": 40.515099,
                "longitude": -111.971339
            }
        },
        {
            "properties": {
                "name": "BUSSIO,SHANA",
                "address": "2197 W 480 N",
                "city": "PROVO",
                "state": " UT",
                "postalCode": "84601",
                "icon": "Yellow.png",
                "latitude": 40.240263,
                "longitude": -111.697042
            }
        },
        {
            "properties": {
                "name": "MANO,RHETT M",
                "address": "1750 E 4800 S #33",
                "city": "SALT LAKE CITY",
                "state": " UT",
                "postalCode": "84117",
                "icon": "Yellow.png",
                "latitude": 40.665917,
                "longitude": -111.842726
            }
        },
        {
            "properties": {
                "name": "LITTLEFIELD,AMANDA SARA",
                "address": "1472 WEST 7350 SOUTH",
                "city": "WEST JORDAN",
                "state": " UT",
                "postalCode": "84084",
                "icon": "Yellow.png",
                "latitude": 40.617804,
                "longitude": -111.937088
            }
        },
        {
            "properties": {
                "name": "ATKINSON,MARGARET W",
                "address": "9714 S INDIAN RIDGE DR",
                "city": "SANDY",
                "state": " UT",
                "postalCode": "84092",
                "icon": "Yellow.png",
                "latitude": 40.57486,
                "longitude": -111.852515
            }
        },
        {
            "properties": {
                "name": "SCHWARZER,ANGELIKA",
                "address": "1829 E FALCON WAY DR",
                "city": "SANDY",
                "state": " UT",
                "postalCode": "84093",
                "icon": "Yellow.png",
                "latitude": 40.584565,
                "longitude": -111.838866
            }
        },
        {
            "properties": {
                "name": "KNOX,ROGER W",
                "address": "5128 S GURENE DR",
                "city": "SALT LAKE CITY",
                "state": " UT",
                "postalCode": "84117",
                "icon": "Yellow.png",
                "latitude": 40.658005,
                "longitude": -111.843932
            }
        },
        {
            "properties": {
                "name": "TAYLOR,BRADLEY C",
                "address": "3610 W PLYMOUTH ROCK COVE",
                "city": "LEHI",
                "state": " UT",
                "postalCode": "84043",
                "icon": "Yellow.png",
                "latitude": 40.439509,
                "longitude": -111.906758
            }
        },
        {
            "properties": {
                "name": "BUDGE,REED DOUGLAS",
                "address": "5536 APPLEVALE DR",
                "city": "MURRAY",
                "state": " UT",
                "postalCode": "84123",
                "icon": "Yellow.png",
                "latitude": 40.660347,
                "longitude": -111.902969
            }
        },
        {
            "properties": {
                "name": "SHELLEY,JOSHUA S",
                "address": "4837 S 1110 E",
                "city": "SALT LAKE CITY",
                "state": " UT",
                "postalCode": "84117",
                "icon": "Yellow.png",
                "latitude": 40.665524,
                "longitude": -111.86022
            }
        },
        {
            "properties": {
                "name": "BINGHAM,JANA P",
                "address": "3263 WEST 11975 SOUTH",
                "city": "RIVERTON",
                "state": " UT",
                "postalCode": "84065",
                "icon": "Yellow.png",
                "latitude": 40.533784,
                "longitude": -111.968934
            }
        },
        {
            "properties": {
                "name": "VIVAR,GERARDO",
                "address": "255 EAST 2700 SOUTH",
                "city": "SALT LAKE CITY",
                "state": " UT",
                "postalCode": "84115",
                "icon": "Yellow.png",
                "latitude": 40.712719,
                "longitude": -111.884107
            }
        },
        {
            "properties": {
                "name": "ALLEN,JEREMY S",
                "address": "5174 W HALSTEAD CT",
                "city": "KEARNS",
                "state": " UT",
                "postalCode": "84118",
                "icon": "Yellow.png",
                "latitude": 40.640573,
                "longitude": -112.014303
            }
        },
        {
            "properties": {
                "name": "DEUS,JEFFREY R",
                "address": "1532 E 2000 N",
                "city": "LEHI",
                "state": " UT",
                "postalCode": "84043",
                "icon": "Yellow.png",
                "latitude": 40.41245,
                "longitude": -111.824397
            }
        },
        {
            "properties": {
                "name": "WILDE,AMELIA B",
                "address": "4309 S 4755 W",
                "city": "WEST VALLEY",
                "state": " UT",
                "postalCode": "84120",
                "icon": "Yellow.png",
                "latitude": 40.676161,
                "longitude": -112.004495
            }
        },
        {
            "properties": {
                "name": "MAY,MARK A",
                "address": "923 W 10375 S",
                "city": "SO JORDAN",
                "state": " UT",
                "postalCode": "84095",
                "icon": "Yellow.png",
                "latitude": 40.562773,
                "longitude": -111.917497
            }
        },
        {
            "properties": {
                "name": "OCHOA,ANTONIO T",
                "address": "PO BOX 8246",
                "city": "MIDVALE",
                "state": " UT",
                "postalCode": "84047",
                "icon": "Yellow.png",
                "latitude": 40.61106,
                "longitude": -111.89994
            }
        },
        {
            "properties": {
                "name": "HANSEN,JEREMY",
                "address": "86 E 1100 N APT 86",
                "city": "BOUNTIFUL",
                "state": " UT",
                "postalCode": "84010-4516",
                "icon": "Yellow.png",
                "latitude": 40.900927,
                "longitude": -111.877973
            }
        },
        {
            "properties": {
                "name": "DUNHAM,RICHARD R",
                "address": "1918 E QUAIL CROSSING LN",
                "city": "MURRAY",
                "state": " UT",
                "postalCode": "84107",
                "icon": "Yellow.png",
                "latitude": 40.638505,
                "longitude": -111.895952
            }
        },
        {
            "properties": {
                "name": "THOMAS,DANIEL C",
                "address": "2242 ARBOR LANE",
                "city": "HOLLADAY",
                "state": " UT",
                "postalCode": "84117",
                "icon": "Yellow.png",
                "latitude": 40.663505,
                "longitude": -111.826995
            }
        },
        {
            "properties": {
                "name": "LITHGOW,ERIC W",
                "address": "3065 E LOSTWOOD DR",
                "city": "SANDY",
                "state": " UT",
                "postalCode": "84092",
                "icon": "Yellow.png",
                "latitude": 40.551435,
                "longitude": -111.807179
            }
        },
        {
            "properties": {
                "name": "WEIR,JEFFREY B",
                "address": "736 EAST 100 SOUTH #3",
                "city": "SALT LAKE CITY",
                "state": " UT",
                "postalCode": "84102",
                "icon": "Yellow.png",
                "latitude": 40.767103,
                "longitude": -111.870123
            }
        },
        {
            "properties": {
                "name": "CORTEZ,JULIAN",
                "address": "4477 S 270 E APT #3",
                "city": "MURRAY",
                "state": " UT",
                "postalCode": "84107",
                "icon": "Yellow.png",
                "latitude": 40.674516,
                "longitude": -111.883728
            }
        },
        {
            "properties": {
                "name": "SHAW,TREVOR C",
                "address": "1801 N 950 W #70",
                "city": "PROVO",
                "state": " UT",
                "postalCode": "84604",
                "icon": "Yellow.png",
                "latitude": 40.258099,
                "longitude": -111.675286
            }
        },
        {
            "properties": {
                "name": "FABBI,JOHN",
                "address": "665 E HOWARD DR",
                "city": "SANDY",
                "state": " UT",
                "postalCode": "84070",
                "icon": "Yellow.png",
                "latitude": 40.578234,
                "longitude": -111.873222
            }
        },
        {
            "properties": {
                "name": "BARKELL,STEVEN R",
                "address": "731 EAST 2200 NORTH",
                "city": "LEHI",
                "state": " UT",
                "postalCode": "84043",
                "icon": "Yellow.png",
                "latitude": 40.415653,
                "longitude": -111.837459
            }
        },
        {
            "properties": {
                "name": "SAUL,MICHAEL W",
                "address": "782 SCOTT AVE #A",
                "city": "SALT LAKE CITY",
                "state": " UT",
                "postalCode": "84106",
                "icon": "Yellow.png",
                "latitude": 40.696301,
                "longitude": -111.868923
            }
        },
        {
            "properties": {
                "name": "SPRINGMEYER,MATTHEW",
                "address": "8912 SHADY MEADOW DR",
                "city": "SANDY",
                "state": " UT",
                "postalCode": "84093",
                "icon": "Yellow.png",
                "latitude": 40.589639,
                "longitude": -111.839711
            }
        },
        {
            "properties": {
                "name": "BEHUNIN,JARED W",
                "address": "8445 S 1475 E",
                "city": "SANDY",
                "state": " UT",
                "postalCode": "84093",
                "icon": "Yellow.png",
                "latitude": 40.59796,
                "longitude": -111.848899
            }
        },
        {
            "properties": {
                "name": "DOYLE,ROBERT JASON",
                "address": "7674 SOUTH 5200 WEST",
                "city": "WEST JORDAN",
                "state": " UT",
                "postalCode": "84084",
                "icon": "Yellow.png",
                "latitude": 40.610848,
                "longitude": -112.014762
            }
        },
        {
            "properties": {
                "name": "RICE,RYIN D",
                "address": "8201 MANSHIRE CIR",
                "city": "SANDY",
                "state": " UT",
                "postalCode": "84094",
                "icon": "Yellow.png",
                "latitude": 40.60214,
                "longitude": -111.868922
            }
        },
        {
            "properties": {
                "name": "FRANCE,MICHAEL D",
                "address": "834 N 300 W",
                "city": "LEHI",
                "state": " UT",
                "postalCode": "84043",
                "icon": "Yellow.png",
                "latitude": 40.397668,
                "longitude": -111.854098
            }
        },
        {
            "properties": {
                "name": "JOHANSSON,KURT O",
                "address": "280 GRIFFITH ST",
                "city": "TOOELE",
                "state": " UT",
                "postalCode": "84074",
                "icon": "Yellow.png",
                "latitude": 40.536644,
                "longitude": -112.30604
            }
        },
        {
            "properties": {
                "name": "CAMERON,JESSICA L",
                "address": "1180 S MAIN STR",
                "city": "OREM",
                "state": " UT",
                "postalCode": "84058",
                "icon": "Yellow.png",
                "latitude": 40.275554,
                "longitude": -111.695228
            }
        },
        {
            "properties": {
                "name": "HANSEN,KARL BRETT",
                "address": "1624 W WESTBURY WAY #B",
                "city": "LEHI",
                "state": " UT",
                "postalCode": "84043",
                "icon": "Yellow.png",
                "latitude": 40.426278,
                "longitude": -111.875251
            }
        },
        {
            "properties": {
                "name": "BRERETON,TROY E",
                "address": "173 W 1720 N",
                "city": "OREM",
                "state": " UT",
                "postalCode": "84057",
                "icon": "Yellow.png",
                "latitude": 40.328614,
                "longitude": -111.700245
            }
        },
        {
            "properties": {
                "name": "WILKINSON,SCOTT W",
                "address": "1249 E ROUND MOUNTAIN CIR",
                "city": "ALPINE",
                "state": " UT",
                "postalCode": "84004",
                "icon": "Yellow.png",
                "latitude": 40.440313,
                "longitude": -111.755691
            }
        },
        {
            "properties": {
                "name": "GARCIA,MARTHA",
                "address": "1411 W HIGHLAND HOLLOW DR",
                "city": "WEST JORDAN",
                "state": " UT",
                "postalCode": "84084",
                "icon": "Yellow.png",
                "latitude": 40.614133,
                "longitude": -111.931572
            }
        },
        {
            "properties": {
                "name": "TWITCHELL,RONALD V",
                "address": "9616 CALEDONIA CIR",
                "city": "SO JORDAN",
                "state": " UT",
                "postalCode": "84095",
                "icon": "Yellow.png",
                "latitude": 40.561921,
                "longitude": -111.981065
            }
        },
        {
            "properties": {
                "name": "SHINALL,ROBERT K",
                "address": "221 AMANDA LYNN LN",
                "city": "MIDVALE",
                "state": " UT",
                "postalCode": "84047",
                "icon": "Yellow.png",
                "latitude": 40.596429,
                "longitude": -111.898519
            }
        },
        {
            "properties": {
                "name": "GARCIA,MICHAEL D",
                "address": "1781 REMINGTON LANE",
                "city": "PARK CITY",
                "state": " UT",
                "postalCode": "84098",
                "icon": "Yellow.png",
                "latitude": 40.709069,
                "longitude": -111.54241
            }
        },
        {
            "properties": {
                "name": "BARKELL,NICOLE S",
                "address": "731 E 2200 N",
                "city": "LEHI",
                "state": " UT",
                "postalCode": "84043",
                "icon": "Yellow.png",
                "latitude": 40.415653,
                "longitude": -111.837459
            }
        },
        {
            "properties": {
                "name": "BRERETON,NICHOLE C",
                "address": "230 N 550 E",
                "city": "LINDON",
                "state": " UT",
                "postalCode": "84042",
                "icon": "Yellow.png",
                "latitude": 40.342066,
                "longitude": -111.701835
            }
        },
        {
            "properties": {
                "name": "PETERSON,KERRY K",
                "address": "1178 EAST 6600 SOUTH #401",
                "city": "SALT LAKE CITY",
                "state": " UT",
                "postalCode": "84121",
                "icon": "Yellow.png",
                "latitude": 40.63164,
                "longitude": -111.858322
            }
        },
        {
            "properties": {
                "name": "LLOYD,PAULINE E",
                "address": "4989 EASTRIDGE LN #202",
                "city": "SALT LAKE CITY",
                "state": " UT",
                "postalCode": "84117",
                "icon": "Yellow.png",
                "latitude": 40.660688,
                "longitude": -111.860548
            }
        },
        {
            "properties": {
                "name": "BANKHEAD,FRANK D",
                "address": "913 E SARATOGA DR",
                "city": "SARATOGA SPRINGS",
                "state": " UT",
                "postalCode": "84045",
                "icon": "Yellow.png",
                "latitude": 40.344135,
                "longitude": -111.912775
            }
        },
        {
            "properties": {
                "name": "ZOLLINGER,LEAH A",
                "address": "2461 WEST 6900 SOUTH",
                "city": "WEST JORDAN",
                "state": " UT",
                "postalCode": "84084",
                "icon": "Yellow.png",
                "latitude": 40.625828,
                "longitude": -111.953401
            }
        },
        {
            "properties": {
                "name": "FULLER,BRANDON",
                "address": "1040 E RAMONA",
                "city": "SALT LAKE CITY",
                "state": " UT",
                "postalCode": "84105",
                "icon": "Yellow.png",
                "latitude": 40.728731,
                "longitude": -111.86124
            }
        },
        {
            "properties": {
                "name": "WHITE,JARED F",
                "address": "877 E HEARTWOOD CIR",
                "city": "FRUIT HEIGHTS",
                "state": " UT",
                "postalCode": "84037",
                "icon": "Yellow.png",
                "latitude": 41.035604,
                "longitude": -111.918155
            }
        },
        {
            "properties": {
                "name": "THOMPSON,DEVON H",
                "address": "6987 WELL WOOD RD #3-O",
                "city": "MIDVALE",
                "state": " UT",
                "postalCode": "84047",
                "icon": "Yellow.png",
                "latitude": 40.625113,
                "longitude": -111.863521
            }
        },
        {
            "properties": {
                "name": "NORDHOFF,SHAUNA",
                "address": "10819 S TAMARACK DR",
                "city": "SANDY",
                "state": " UT",
                "postalCode": "84094",
                "icon": "Yellow.png",
                "latitude": 40.554982,
                "longitude": -111.853885
            }
        },
        {
            "properties": {
                "name": "TERMUNDE,RICHARD STEVEN",
                "address": "255 EAST 2700 SOUTH",
                "city": "SALT LAKE CITY",
                "state": " UT",
                "postalCode": "84115",
                "icon": "Yellow.png",
                "latitude": 40.712719,
                "longitude": -111.884107
            }
        },
        {
            "properties": {
                "name": "MASTIN,JULIE J.",
                "address": "4805 N MEADOWLOOP RD #61",
                "city": "PARK CITY",
                "state": " UT",
                "postalCode": "84098",
                "icon": "Yellow.png",
                "latitude": 40.700345,
                "longitude": -111.537679
            }
        },
        {
            "properties": {
                "name": "BOMBERG,ANDREAS K",
                "address": "33 WINDRIVER LANE",
                "city": "LINDON",
                "state": " UT",
                "postalCode": "84042",
                "icon": "Yellow.png",
                "latitude": 40.337068,
                "longitude": -111.684508
            }
        },
        {
            "properties": {
                "name": "BLANCHETTE,PAUL WILLIAM",
                "address": "8551 S TERRACE DR",
                "city": "SANDY",
                "state": " UT",
                "postalCode": "84093",
                "icon": "Yellow.png",
                "latitude": 40.600673,
                "longitude": -111.834563
            }
        },
        {
            "properties": {
                "name": "THOMPSON,TASE M",
                "address": "9446 S WASATCH VIEW CIR",
                "city": "S JORDAN",
                "state": " UT",
                "postalCode": "84095",
                "icon": "Yellow.png",
                "latitude": 40.579459,
                "longitude": -111.924675
            }
        },
        {
            "properties": {
                "name": "LARRY H. MILLER LEXUS",
                "address": "5701 SO. STATE STREET",
                "city": "MURRAY",
                "state": " UT",
                "postalCode": "84107",
                "icon": "Blue.png",
                "latitude": 40.645962,
                "longitude": -111.888747
            }
        }
    ]
});
	